Id,NAME,ADDRESS,CITY,STATE,ZIP,LAT,LON,PHONE,REVENUE,UTILIZATION
5e765f2b-e908-3888-9fc7-df2cb87beb58,STURDY MEMORIAL HOSPITAL,211 PARK STREET,ATTLEBORO,MA,02703,41.931653,-71.294503,5082225200,0.0,97
4861d01f-019c-3dac-a153-8334e50919f9,NORTH SHORE MEDICAL CENTER -,81 HIGHLAND AVENUE,SALEM,MA,01970,42.50128,-70.897502,9787411215,0.0,9
c44f361c-2efb-3050-8f97-0354a12e2920,SIGNATURE HEALTHCARE BROCKTON HOSPITAL,680 CENTER STREET,BROCKTON,MA,02302,42.082543,-71.024638,5089417000,0.0,104
ebc3f5c4-6700-34af-8323-85621c313726,NOBLE HOSPITAL,115 WEST SILVER STREET,WESTFIELD,MA,01085,42.138838,-72.755911,4135682811,0.0,38
d692e283-0833-3201-8e55-4f868a9c0736,HALLMARK HEALTH SYSTEM,585 LEBANON STREET,MELROSE,MA,02176,42.455723,-71.05901899999998,7819793000,0.0,4
db0acede-4abe-3c01-8d03-5c68a190d8c7,SOUTH SHORE HOSPITAL,55 FOGG ROAD,SOUTH WEYMOUTH,MA,02190,42.24158900000001,-71.082651,7813408000,0.0,57
f4e7709c-02f6-37ca-aeea-8247d74e88e7,WINCHESTER HOSPITAL,41 HIGHLAND AVENUE,WINCHESTER,MA,01890,42.452752,-71.144319,7817299000,0.0,29
12c9daf5-a29c-36c9-ac55-28972463e566,BETH ISRAEL DEACONESS HOSPITAL-MILTON INC,199 REEDSDALE ROAD,MILTON,MA,02186,42.24158900000001,-71.082651,6176964600,0.0,2
226098a2-6a40-3588-b5bb-db56c3a30a04,GOOD SAMARITAN MEDICAL CENTER,235 NORTH PEARL STREET,BROCKTON,MA,02301,42.082543,-71.024638,5084273000,0.0,6
d5117822-5756-389d-9547-891a372d580f,FALMOUTH HOSPITAL,67 & 100 TER HEUN DRIVE,FALMOUTH,MA,02540,41.57072,-70.556682,5085485300,0.0,240
6f122869-a856-3d65-8db9-099bf4f5bbb8,LAHEY HOSPITAL & MEDICAL CENTER  BURLINGTON,41 & 45 MALL ROAD,BURLINGTON,MA,01803,42.503227,-71.201713,7817445100,0.0,8
80e919cc-df1a-3838-b75e-541564a286e5,NANTUCKET COTTAGE HOSPITAL,57 PROSPECT STREET,NANTUCKET,MA,02554,41.293416,-70.10216899999999,5082281200,0.0,24
0df61196-c165-3212-9389-40d4bb4a39cb,PCP4391,540 MAIN ST,WINCHESTER,MA,01890-2940,42.452752000000004,-71.144319,617-331-3314,0.0,37
ec446f6a-807f-3230-975f-9e1fe62d8876,ANZALDI EYE ASSOCIATES LLC,427 LYNNWAY,LYNN,MA,01905-3028,42.474862,-70.96218499999999,781-599-2773,0.0,24
137c644f-d7d2-3c20-949f-640d83ff3743,PCP13559,21 MARSHVIEW LANE,MARSTON MILLS,MA,02648,41.662727,-70.357208,508-420-1215,0.0,64
79da249b-82e4-3074-8c82-6049b443aff0,PCP179691,57 PROSPECT ST,NANTUCKET,MA,02554-2799,41.293416,-70.10216899999999,508-228-4846,0.0,48
3fb76bb8-2dd5-3d09-955a-e7909a366062,COMMUNITY PHYSICIANS ASSOC INC,100 HIGHLAND ST,MILTON,MA,02186-3881,42.241557,-71.082432,,0.0,34
6040b2da-71a1-3d12-a777-427cbb929931,PCP231204,46 MAIN RD,MONTGOMERY,MA,01085-9522,42.220395,-72.834999,413-862-3400,0.0,31
6b1fd66f-0f57-3f84-8d77-4b0a929468d4,URGI CENTER MEDICAL GROUP,2 JAN SEBASTIAN DR,SANDWICH,MA,02563-2377,41.7132,-70.485737,508-833-2639,0.0,75
cafe2177-c0c7-36bd-bea5-53ad4c45ee4d,STEWARD MEDICAL GROUP  INC,909 SUMNER ST,STOUGHTON,MA,02072-3396,42.119006,-71.10365,508-427-2700,0.0,51
0d307ea2-118e-39a2-8619-7bf9948df58a,MASS OPTOMETRIC ASSOCIATES  PLLC,15 HIGHLAND AVE,SEEKONK,MA,02771-5805,41.839797999999995,-71.31804699999999,508-336-4096,0.0,41
17f895c6-4b80-37c3-aea2-52404852363f,MASS OPTOMETRIC ASSOCIATES  PLLC,90 MIDDLESEX TPKE,BURLINGTON,MA,01803-4920,42.503227,-71.201713,781-229-0434,0.0,29
d3df855b-3e2b-304d-a25d-11cb20d2510b,HALLMARK HEALTH MEDICAL ASSOCIATES INC,280 BEACH ST,REVERE,MA,02151-3143,42.421005,-70.99036,781-289-2266,0.0,12
5f178592-5066-33f6-8594-e6f58caca21c,MASHPEE FAMILY MEDICINE,5 INDUSTRIAL DRIVE,MASHPEE,MA,2649,41.6050403,-70.4944565,508-477-4282,0.0,5
df5a38ee-e493-3572-8f92-bb695aef9891,MID CAPE MEDICAL CENTER,489 BEARSES WAY,HYANNIS,MA,2601,41.6624796,-70.3008223,508-771-4092,0.0,2
e3f1676b-9b40-3544-af4e-17a06bbb98bb,CODMAN SQUARE HEALTH CENTER,637 WASHINGTON STREET,DORCHESTER,MA,2124,42.2894365,-71.0719941,617-825-9660,0.0,1
98d42012-384f-39d9-b210-cc654b9441f6,FONTAINE MEDICAL CENTER,525 LONG POND DRIVE,HARWICH,MA,2645,41.722586,-70.0372004,508-432-4100,0.0,1
108ccece-277a-396f-8bf2-1527f74458eb,ON CALL URGENT CARE CENTER,51 LOCUST STREET,NORTHAMPTON,MA,1060,42.3323152,-72.6545646,413-584-7425,0.0,1
8835b980-3bff-3225-9c0f-450c0f58455f,WESTFIELD GARDENS NURSING AND REHAB,37 FEEDING HILLS ROAD,WESTFIELD,MA,01085,42.138838,-72.755911,4135682341,0.0,1
90f8914f-cbe5-39f2-9b50-a3db2baecbae,BLUE HILLS HEALTH AND REHABILITATION CENTER LLC,1044 PARK STREET,STOUGHTON,MA,02072,42.119006,-71.10365,7813447300,0.0,1
5f46df70-9e51-342d-8716-6e2383b419e0,ATTLEBORO HEALTHCARE,27 GEORGE STREET,ATTLEBORO,MA,02703,41.931653,-71.294503,5082261650,0.0,1
